- id: etchmiadzin
  name_hy: "Էջմիածնի Մայր Տաճար"
  name_en: "Etchmiadzin Mother Cathedral"
  period: "Հին"
  century: "IV դար"
  year: 301
  location_hy: "Վաղարշապատ (Էջմիածին), Արմավիրի մարզ"
  location_en: "Vagharshapat (Etchmiadzin), Armavir Province"
  unesco: true
  coordinates:
    lat: 40.1596
    lon: 44.2919
  image_old: "/static/img/churches/etchmiadzin-old-1.jpg"
  image_new: "/static/img/churches/etchmiadzin-old-2.jpg"

- id: artashat-octagon
  name_hy: "Արտաշատի ութանկյուն եկեղեցի"
  name_en: "Artashat Octagonal Church"
  period: "Հին"
  century: "IV դար"
  year: 330
  location_hy: "Հին Արտաշատ (Արտաքսատ), Արարատի մարզ"
  location_en: "Ancient Artashat (Artaxata), Ararat Province"
  unesco: false
  coordinates:
    lat: 39.9010
    lon: 44.5720
  image_old: "/static/img/churches/artashat-octagon-1.jpg"
  image_new: "/static/img/churches/artashat-octagon-2.jpg"

- id: hripsime
  name_hy: "Սուրբ Հռիփսիմե եկեղեցի"
  name_en: "Saint Hripsime Church"
  period: "Հին"
  century: "VII դար"
  year: 618
  location_hy: "Վաղարշապատ (Էջմիածին), Արմավիրի մարզ"
  location_en: "Vagharshapat (Etchmiadzin), Armavir Province"
  unesco: true
  coordinates:
    lat: 40.1611
    lon: 44.2919
  image_old: "/static/img/churches/hripsime-old.jpg"
  image_new: "/static/img/churches/hripsime-new.jpg"

- id: gayane
  name_hy: "Սուրբ Գայանե եկեղեցի"
  name_en: "Saint Gayane Church"
  period: "Հին"
  century: "VII դար"
  year: 630
  location_hy: "Վաղարշապատ (Էջմիածին), Արմավիրի մարզ"
  location_en: "Vagharshapat (Etchmiadzin), Armavir Province"
  unesco: true
  coordinates:
    lat: 40.1578
    lon: 44.2911
  image_old: "/static/img/churches/gayane-old.jpg"
  image_new: "/static/img/churches/gayane-new.jpg"

- id: saint-gregory-yerevan
  name_hy: "Սուրբ Գրիգոր Լուսավորիչ մայր տաճար"
  name_en: "Saint Gregory the Illuminator Cathedral"
  period: "Նոր"
  century: "XXI դար"
  year: 2001
  location_hy: "Երևան, Կենտրոն վարչական շրջան (Երվանդ Քոչարի փողոց, «Գեներալ Անդրանիկ» մետրոյի հարևանությամբ)"
  location_en: "Yerevan, Kentron District (Yervand Kochar Street, next to General Andranik metro station)"
  unesco: false
  coordinates:
    lat: 40.1719
    lon: 44.5169
  image_old: "/static/img/churches/Saint-Gregory_1.jpg"
  image_new: "/static/img/churches/Saint_Gregory_2.webp"

- id: saint-anna-yerevan
  name_hy: "Սուրբ Աննա եկեղեցի"
  name_en: "Saint Anna Church"
  period: "Նոր"
  century: "XXI դար"
  year: 2015
  location_hy: "Երևան, Կենտրոն վարչական շրջան (Աբովյան և Սայաթ-Նովա փողոցների խաչմերուկ)"
  location_en: "Yerevan, Kentron District (intersection of Abovyan and Sayat-Nova streets)"
  unesco: false
  coordinates:
    lat: 40.1844
    lon: 44.5191
  image_old: "/static/img/churches/saint-anna-1.jpg"
  image_new: "/static/img/churches/saint-anna-2.jpg"
